$GNTXT,1,1,01,ANTENNA OK*2B
$GNRMC,102115.00,A,2907.47762,N,07930.94423,E,0.282,,121222,,,A,V*13
$GNGGA,102115.00,2907.47762,N,07930.94423,E,1,09,1.72,336.2,M,-40.4,M,,*69
$GNGSA,A,3,09,07,04,16,27,,,,,,,,2.60,1.72,1.95,1*04
$GNGSA,A,3,10,09,06,07,,,,,,,,,2.60,1.72,1.95,4*00
$GPGSV,3,1,12,01,02,152,08,04,40,160,26,07,55,341,29,08,57,075,08,0*60
$GPGSV,3,2,12,09,70,209,31,14,26,253,,16,07,050,10,17,00,202,,0*67
$GPGSV,3,3,12,20,02,293,,21,11,128,,27,28,047,20,30,27,308,09,0*6C
$BDGSV,2,1,05,06,51,116,22,07,74,047,26,09,63,102,13,10,87,037,24,0*74
$BDGSV,2,2,05,12,17,050,,0*41
$GNTXT,1,1,01,ANTENNA OK*2B
$GNRMC,102116.00,A,2907.47776,N,07930.94452,E,0.474,,121222,,,A,V*1C
$GNGGA,102116.00,2907.47776,N,07930.94452,E,1,09,1.72,335.5,M,-40.4,M,,*6D
$GNGSA,A,3,09,07,04,16,27,,,,,,,,2.60,1.72,1.95,1*04
$GNGSA,A,3,10,09,06,07,,,,,,,,,2.60,1.72,1.95,4*00
$GPGSV,3,1,12,01,02,152,08,04,40,160,25,07,55,341,30,08,57,075,,0*63
$GPGSV,3,2,12,09,70,209,30,14,26,253,,16,07,050,11,17,00,202,,0*67
$GPGSV,3,3,12,20,02,293,,21,11,128,,27,28,047,20,30,27,308,10,0*64
$BDGSV,2,1,05,06,51,116,22,07,74,047,26,09,63,102,13,10,87,037,23,0*73
$BDGSV,2,2,05,12,17,050,,0*41
$GNTXT,1,1,01,ANTENNA OK*2B
$GNRMC,102117.00,A,2907.47791,N,07930.94478,E,0.674,,121222,,,A,V*1E
$GNGGA,102117.00,2907.47791,N,07930.94478,E,1,09,1.72,334.6,M,-40.4,M,,*6F
$GNGSA,A,3,09,07,04,16,27,,,,,,,,2.60,1.72,1.95,1*04
$GNGSA,A,3,10,09,06,07,,,,,,,,,2.60,1.72,1.95,4*00
$GPGSV,3,1,12,01,02,152,09,04,40,160,25,07,55,341,30,08,57,075,16,0*65
$GPGSV,3,2,12,09,70,209,29,14,26,253,,16,07,050,12,17,00,202,,0*6C
$GPGSV,3,3,12,20,02,293,,21,11,128,,27,28,047,20,30,27,308,12,0*66
$BDGSV,2,1,05,06,51,116,21,07,74,047,26,09,63,102,14,10,87,037,23,0*77
$BDGSV,2,2,05,12,17,050,,0*41
$GNTXT,1,1,01,ANTENNA OK*2B
$GNRMC,102118.00,A,2907.47802,N,07930.94509,E,0.741,,121222,,,A,V*14
$GNGGA,102118.00,2907.47802,N,07930.94509,E,1,09,1.72,333.8,M,-40.4,M,,*6B
$GNGSA,A,3,09,07,04,16,27,,,,,,,,2.60,1.72,1.95,1*04
$GNGSA,A,3,10,09,06,07,,,,,,,,,2.60,1.72,1.95,4*00
$GPGSV,3,1,12,01,02,152,08,04,40,160,25,07,55,341,30,08,57,075,16,0*64
$GPGSV,3,2,12,09,70,209,28,14,26,253,,16,07,050,12,17,00,202,,0*6D
$GPGSV,3,3,12,20,02,293,,21,11,128,,27,28,047,21,30,27,308,11,0*64
$BDGSV,2,1,05,06,51,116,21,07,74,047,26,09,63,102,15,10,87,037,22,0*77
$BDGSV,2,2,05,12,17,050,,0*41
$GNTXT,1,1,01,ANTENNA OK*2B
$GNRMC,102119.00,A,2907.47809,N,07930.94529,E,0.546,,121222,,,A,V*19
$GNGGA,102119.00,2907.47809,N,07930.94529,E,1,09,1.72,333.2,M,-40.4,M,,*69
$GNGSA,A,3,09,07,04,16,27,,,,,,,,2.60,1.72,1.95,1*04
$GNGSA,A,3,10,09,06,07,,,,,,,,,2.60,1.72,1.95,4*00
$GPGSV,3,1,12,01,02,152,07,04,40,160,25,07,55,341,28,08,57,075,16,0*62
$GPGSV,3,2,12,09,70,209,28,14,26,253,,16,07,050,12,17,00,202,,0*6D
$GPGSV,3,3,12,20,02,293,,21,11,128,,27,27,047,21,30,27,308,11,0*6B
$BDGSV,2,1,05,06,51,116,21,07,74,047,27,09,63,102,16,10,87,037,22,0*75
$BDGSV,2,2,05,12,17,050,,0*41
$GNTXT,1,1,01,ANTENNA OK*2B
$GNRMC,102120.00,A,2907.47811,N,07930.94554,E,0.454,,121222,,,A,V*12
$GNGGA,102120.00,2907.47811,N,07930.94554,E,1,09,1.72,332.9,M,-40.4,M,,*6A
$GNGSA,A,3,09,07,04,16,27,,,,,,,,2.60,1.72,1.95,1*04
$GNGSA,A,3,10,09,06,07,,,,,,,,,2.60,1.72,1.95,4*00
$GPGSV,3,1,12,01,02,152,,04,40,160,25,07,55,341,29,08,57,075,15,0*67
$GPGSV,3,2,12,09,70,209,30,14,26,253,,16,07,050,13,17,00,202,,0*65
$GPGSV,3,3,12,20,02,293,,21,11,128,,27,27,047,21,30,27,308,12,0*68
$BDGSV,2,1,05,06,51,116,23,07,74,047,28,09,63,102,17,10,87,037,26,0*7D
$BDGSV,2,2,05,12,17,050,,0*41
$GNTXT,1,1,01,ANTENNA OK*2B
$GNRMC,102121.00,A,2907.47813,N,07930.94555,E,0.121,,121222,,,A,V*17
$GNGGA,102121.00,2907.47813,N,07930.94555,E,1,10,1.59,332.8,M,-40.4,M,,*68
$GNGSA,A,3,09,07,04,16,27,08,,,,,,,2.38,1.59,1.78,1*0B
$GNGSA,A,3,10,09,06,07,,,,,,,,,2.38,1.59,1.78,4*07
$GPGSV,3,1,12,01,02,152,,04,40,160,25,07,55,341,29,08,57,075,15,0*67
$GPGSV,3,2,12,09,70,209,31,14,26,253,,16,07,050,13,17,00,202,,0*64
$GPGSV,3,3,12,20,02,293,,21,11,128,,27,27,047,21,30,27,309,12,0*69
$BDGSV,2,1,05,06,51,116,24,07,74,047,28,09,63,102,17,10,87,037,27,0*7B
$BDGSV,2,2,05,12,17,050,,0*41
$GNTXT,1,1,01,ANTENNA OK*2B
$GNRMC,102122.00,A,2907.47814,N,07930.94571,E,0.248,,121222,,,A,V*19
$GNGGA,102122.00,2907.47814,N,07930.94571,E,1,10,1.59,332.5,M,-40.4,M,,*67
$GNGSA,A,3,09,07,04,16,27,08,,,,,,,2.38,1.59,1.78,1*0B
$GNGSA,A,3,10,09,06,07,,,,,,,,,2.38,1.59,1.78,4*07
$GPGSV,3,1,12,01,02,152,,04,40,160,26,07,55,341,30,08,57,075,15,0*6C
$GPGSV,3,2,12,09,70,209,32,14,26,253,,16,07,050,14,17,00,202,,0*60
$GPGSV,3,3,12,20,02,293,,21,11,128,,27,27,047,21,30,27,309,11,0*6A
$BDGSV,2,1,05,06,51,116,25,07,74,047,28,09,63,102,18,10,87,037,27,0*75
$BDGSV,2,2,05,12,17,050,,0*41
$GNTXT,1,1,01,ANTENNA OK*2B
$GNRMC,102123.00,A,2907.47822,N,07930.94573,E,0.050,,121222,,,A,V*14
$GNGGA,102123.00,2907.47822,N,07930.94573,E,1,10,1.59,332.4,M,-40.4,M,,*60
$GNGSA,A,3,09,07,04,16,27,08,,,,,,,2.38,1.59,1.78,1*0B
$GNGSA,A,3,10,09,06,07,,,,,,,,,2.38,1.59,1.78,4*07
$GPGSV,3,1,12,01,02,152,,04,40,160,26,07,55,341,30,08,57,075,16,0*6F
$GPGSV,3,2,12,09,70,209,32,14,26,253,,16,07,050,14,17,00,202,,0*60
$GPGSV,3,3,12,20,02,293,,21,11,128,,27,27,047,21,30,27,309,12,0*69
$BDGSV,2,1,05,06,51,116,25,07,74,047,28,09,63,102,19,10,87,037,27,0*74
$BDGSV,2,2,05,12,17,050,,0*41
$GNTXT,1,1,01,ANTENNA OK*2B
$GNRMC,102124.00,A,2907.47823,N,07930.94573,E,0.102,,121222,,,A,V*14
$GNGGA,102124.00,2907.47823,N,07930.94573,E,1,10,1.59,332.4,M,-40.4,M,,*66
$GNGSA,A,3,09,07,04,16,27,08,,,,,,,2.38,1.59,1.78,1*0B
$GNGSA,A,3,10,09,06,07,,,,,,,,,2.38,1.59,1.78,4*07
$GPGSV,3,1,12,01,02,152,,04,40,160,25,07,55,341,30,08,57,075,16,0*6C
$GPGSV,3,2,12,09,70,209,32,14,26,253,,16,07,050,14,17,00,202,,0*60
$GPGSV,3,3,12,20,02,293,,21,11,128,,27,27,047,21,30,27,309,14,0*6F
$BDGSV,2,1,05,06,51,116,25,07,74,047,28,09,63,102,19,10,87,037,26,0*75
$BDGSV,2,2,05,12,17,050,,0*41